<ArrayOfStadium xmlns:i="http://www.w3.org/2001/XMLSchema-instance"><Stadium><StadiumID>1</StadiumID><Name>New Era Field</Name><City>Orchard Park</City><State>NY</State><Country>USA</Country><Capacity>73079</Capacity><PlayingSurface>Artificial</PlayingSurface><GeoLat>42.773758</GeoLat><GeoLong>-78.786837</GeoLong><Type>Outdoor</Type></Stadium><Stadium><StadiumID>2</StadiumID><Name>Hard Rock Stadium</Name><City>Miami Gardens</City><State>FL</State><Country>USA</Country><Capacity>76100</Capacity><PlayingSurface>Grass</PlayingSurface><GeoLat>25.957740</GeoLat><GeoLong>-80.238781</GeoLong><Type>Outdoor</Type></Stadium><Stadium><StadiumID>3</StadiumID><Name>MetLife Stadium</Name><City>East Rutherford</City><State>NJ</State><Country>USA</Country><Capacity>82500</Capacity><PlayingSurface>Artificial</PlayingSurface><GeoLat>40.813611</GeoLat><GeoLong>-74.074444</GeoLong><Type>Outdoor</Type></Stadium><Stadium><StadiumID>4</StadiumID><Name>Gillette Stadium</Name><City>Foxborough</City><State>MA</State><Country>USA</Country><Capacity>68756</Capacity><PlayingSurface>Artificial</PlayingSurface><GeoLat>42.090866</GeoLat><GeoLong>-71.264244</GeoLong><Type>Outdoor</Type></Stadium><Stadium><StadiumID>5</StadiumID><Name>Paul Brown Stadium</Name><City>Cincinnati</City><State>OH</State><Country>USA</Country><Capacity>65535</Capacity><PlayingSurface>Artificial</PlayingSurface><GeoLat>39.095309</GeoLat><GeoLong>-84.516003</GeoLong><Type>Outdoor</Type></Stadium><Stadium><StadiumID>6</StadiumID><Name>FirstEnergy Stadium</Name><City>Cleveland</City><State>OH</State><Country>USA</Country><Capacity>71516</Capacity><PlayingSurface>Grass</PlayingSurface><GeoLat>41.505885</GeoLat><GeoLong>-81.699458</GeoLong><Type>Outdoor</Type></Stadium><Stadium><StadiumID>7</StadiumID><Name>M&amp;T Bank Stadium</Name><City>Baltimore</City><State>MD</State><Country>USA</Country><Capacity>71008</Capacity><PlayingSurface>Grass</PlayingSurface><GeoLat>39.277985</GeoLat><GeoLong>-76.622788</GeoLong><Type>Outdoor</Type></Stadium><Stadium><StadiumID>8</StadiumID><Name>Heinz Field</Name><City>Pittsburgh</City><State>PA</State><Country>USA</Country><Capacity>65050</Capacity><PlayingSurface>Grass</PlayingSurface><GeoLat>40.446751</GeoLat><GeoLong>-80.015707</GeoLong><Type>Outdoor</Type></Stadium><Stadium><StadiumID>9</StadiumID><Name>Lucas Oil Stadium</Name><City>Indianapolis</City><State>IN</State><Country>USA</Country><Capacity>67000</Capacity><PlayingSurface>Artificial</PlayingSurface><GeoLat>39.760056</GeoLat><GeoLong>-86.163806</GeoLong><Type>RetractableDome</Type></Stadium><Stadium><StadiumID>10</StadiumID><Name>TIAA Bank Field</Name><City>Jacksonville</City><State>FL</State><Country>USA</Country><Capacity>67246</Capacity><PlayingSurface>Grass</PlayingSurface><GeoLat>30.323813</GeoLat><GeoLong>-81.637199</GeoLong><Type>Outdoor</Type></Stadium><Stadium><StadiumID>11</StadiumID><Name>NRG Stadium</Name><City>Houston</City><State>TX</State><Country>USA</Country><Capacity>71054</Capacity><PlayingSurface>Artificial</PlayingSurface><GeoLat>29.684722</GeoLat><GeoLong>-95.410707</GeoLong><Type>RetractableDome</Type></Stadium><Stadium><StadiumID>12</StadiumID><Name>Nissan Stadium</Name><City>Nashville</City><State>TN</State><Country>USA</Country><Capacity>69140</Capacity><PlayingSurface>Grass</PlayingSurface><GeoLat>36.166441</GeoLat><GeoLong>-86.771253</GeoLong><Type>Outdoor</Type></Stadium><Stadium><StadiumID>13</StadiumID><Name>Broncos Stadium at Mile High</Name><City>Denver</City><State>CO</State><Country>USA</Country><Capacity>76125</Capacity><PlayingSurface>Grass</PlayingSurface><GeoLat>39.743936</GeoLat><GeoLong>-105.020097</GeoLong><Type>Outdoor</Type></Stadium><Stadium><StadiumID>14</StadiumID><Name>Qualcomm Stadium</Name><City>San Diego</City><State>CA</State><Country>USA</Country><Capacity>70561</Capacity><PlayingSurface>Grass</PlayingSurface><GeoLat>32.783188</GeoLat><GeoLong>-117.119439</GeoLong><Type>Outdoor</Type></Stadium><Stadium><StadiumID>15</StadiumID><Name>Arrowhead Stadium</Name><City>Kansas City</City><State>MO</State><Country>USA</Country><Capacity>76416</Capacity><PlayingSurface>Grass</PlayingSurface><GeoLat>39.049002</GeoLat><GeoLong>-94.483864</GeoLong><Type>Outdoor</Type></Stadium><Stadium><StadiumID>16</StadiumID><Name>Oakland Coliseum</Name><City>Oakland</City><State>CA</State><Country>USA</Country><Capacity>53200</Capacity><PlayingSurface>Grass</PlayingSurface><GeoLat>37.751613</GeoLat><GeoLong>-122.200509</GeoLong><Type>Outdoor</Type></Stadium><Stadium><StadiumID>17</StadiumID><Name>AT&amp;T Stadium</Name><City>Arlington</City><State>TX</State><Country>USA</Country><Capacity>80000</Capacity><PlayingSurface>Artificial</PlayingSurface><GeoLat>32.747778</GeoLat><GeoLong>-97.092778</GeoLong><Type>RetractableDome</Type></Stadium><Stadium><StadiumID>18</StadiumID><Name>Lincoln Financial Field</Name><City>Philadelphia</City><State>PA</State><Country>USA</Country><Capacity>68532</Capacity><PlayingSurface>Grass</PlayingSurface><GeoLat>39.900771</GeoLat><GeoLong>-75.167469</GeoLong><Type>Outdoor</Type></Stadium><Stadium><StadiumID>19</StadiumID><Name>FedEx Field</Name><City>Landover</City><State>MD</State><Country>USA</Country><Capacity>85000</Capacity><PlayingSurface>Grass</PlayingSurface><GeoLat>38.907652</GeoLat><GeoLong>-76.864479</GeoLong><Type>Outdoor</Type></Stadium><Stadium><StadiumID>20</StadiumID><Name>Soldier Field</Name><City>Chicago</City><State>IL</State><Country>USA</Country><Capacity>61500</Capacity><PlayingSurface>Grass</PlayingSurface><GeoLat>41.862320</GeoLat><GeoLong>-87.616699</GeoLong><Type>Outdoor</Type></Stadium><Stadium><StadiumID>21</StadiumID><Name>Ford Field</Name><City>Detroit</City><State>MI</State><Country>USA</Country><Capacity>65000</Capacity><PlayingSurface>Artificial</PlayingSurface><GeoLat>42.340021</GeoLat><GeoLong>-83.045777</GeoLong><Type>Dome</Type></Stadium><Stadium><StadiumID>22</StadiumID><Name>Lambeau Field</Name><City>Green Bay</City><State>WI</State><Country>USA</Country><Capacity>80750</Capacity><PlayingSurface>Grass</PlayingSurface><GeoLat>44.501389</GeoLat><GeoLong>-88.061944</GeoLong><Type>Outdoor</Type></Stadium><Stadium><StadiumID>23</StadiumID><Name>Mall of America Field</Name><City>Minneapolis</City><State>MN</State><Country>US</Country><Capacity>64111</Capacity><PlayingSurface>Dome</PlayingSurface><GeoLat>44.976000</GeoLat><GeoLong>-93.225000</GeoLong><Type>Dome</Type></Stadium><Stadium><StadiumID>24</StadiumID><Name>Raymond James Stadium</Name><City>Tampa Bay</City><State>FL</State><Country>USA</Country><Capacity>65890</Capacity><PlayingSurface>Grass</PlayingSurface><GeoLat>27.975967</GeoLat><GeoLong>-82.503350</GeoLong><Type>Outdoor</Type></Stadium><Stadium><StadiumID>25</StadiumID><Name>Georgia Dome</Name><City>Atlanta</City><State>GA</State><Country>USA</Country><Capacity>74228</Capacity><PlayingSurface>Dome</PlayingSurface><GeoLat>33.757614</GeoLat><GeoLong>-84.400972</GeoLong><Type>Dome</Type></Stadium><Stadium><StadiumID>26</StadiumID><Name>Bank of America Stadium</Name><City>Charlotte</City><State>NC</State><Country>USA</Country><Capacity>73778</Capacity><PlayingSurface>Grass</PlayingSurface><GeoLat>35.225808</GeoLat><GeoLong>-80.852861</GeoLong><Type>Outdoor</Type></Stadium><Stadium><StadiumID>27</StadiumID><Name>Mercedes-Benz Superdome</Name><City>New Orleans</City><State>LA</State><Country>USA</Country><Capacity>73208</Capacity><PlayingSurface>Artificial</PlayingSurface><GeoLat>29.950931</GeoLat><GeoLong>-90.081364</GeoLong><Type>Dome</Type></Stadium><Stadium><StadiumID>28</StadiumID><Name>Candlestick Park</Name><City>San Francisco</City><State>CA</State><Country>US</Country><Capacity>70207</Capacity><PlayingSurface>Grass</PlayingSurface><GeoLat>37.404108</GeoLat><GeoLong>-121.970274</GeoLong><Type>Outdoor</Type></Stadium><Stadium><StadiumID>29</StadiumID><Name>U of Phoenix Stadium</Name><City>Glendale</City><State>AZ</State><Country>USA</Country><Capacity>63400</Capacity><PlayingSurface>Grass</PlayingSurface><GeoLat>33.527558</GeoLat><GeoLong>-112.263036</GeoLong><Type>RetractableDome</Type></Stadium><Stadium><StadiumID>30</StadiumID><Name>Edward Jones Dome</Name><City>St. Louis</City><State>MO</State><Country>USA</Country><Capacity>66000</Capacity><PlayingSurface>Dome</PlayingSurface><GeoLat>38.632975</GeoLat><GeoLong>-90.188547</GeoLong><Type>Dome</Type></Stadium><Stadium><StadiumID>31</StadiumID><Name>CenturyLink Field</Name><City>Seattle</City><State>WA</State><Country>USA</Country><Capacity>67000</Capacity><PlayingSurface>Artificial</PlayingSurface><GeoLat>47.595153</GeoLat><GeoLong>-122.331625</GeoLong><Type>Outdoor</Type></Stadium><Stadium><StadiumID>33</StadiumID><Name>Wembley Stadium</Name><City>London</City><State i:nil="true"/><Country>UK</Country><Capacity>86000</Capacity><PlayingSurface>Grass</PlayingSurface><GeoLat>51.555833</GeoLat><GeoLong>-0.279722</GeoLong><Type>Retractable_dome</Type></Stadium><Stadium><StadiumID>34</StadiumID><Name>Rogers Centre</Name><City>Toronto</City><State i:nil="true"/><Country>CA</Country><Capacity>86000</Capacity><PlayingSurface>Dome</PlayingSurface><GeoLat>43.641590</GeoLat><GeoLong>-79.390028</GeoLong><Type>Retractable_dome</Type></Stadium><Stadium><StadiumID>35</StadiumID><Name>Fawcett Stadium</Name><City>Canton</City><State>OH</State><Country>USA</Country><Capacity>22375</Capacity><PlayingSurface>Artificial</PlayingSurface><GeoLat>40.819822</GeoLat><GeoLong>-81.398177</GeoLong><Type>Outdoor</Type></Stadium><Stadium><StadiumID>36</StadiumID><Name>TCF Bank Stadium</Name><City>Minneapolis</City><State>MN</State><Country>USA</Country><Capacity>50805</Capacity><PlayingSurface>Artificial</PlayingSurface><GeoLat>44.976000</GeoLat><GeoLong>-93.225000</GeoLong><Type>Outdoor</Type></Stadium><Stadium><StadiumID>37</StadiumID><Name>Levi's Stadium</Name><City>Santa Clara</City><State>CA</State><Country>USA</Country><Capacity>68500</Capacity><PlayingSurface>Grass</PlayingSurface><GeoLat>37.404108</GeoLat><GeoLong>-121.970274</GeoLong><Type>Outdoor</Type></Stadium><Stadium><StadiumID>38</StadiumID><Name>Los Angeles Memorial Coliseum</Name><City>Los Angeles</City><State>CA</State><Country>USA</Country><Capacity>93607</Capacity><PlayingSurface>Grass</PlayingSurface><GeoLat>34.014167</GeoLat><GeoLong>-118.287778</GeoLong><Type>Outdoor</Type></Stadium><Stadium><StadiumID>39</StadiumID><Name>Camping World Stadium</Name><City>Orlando</City><State>FL</State><Country>USA</Country><Capacity>65000</Capacity><PlayingSurface>Artificial</PlayingSurface><GeoLat>25.958056</GeoLat><GeoLong>-80.238889</GeoLong><Type>Outdoor</Type></Stadium><Stadium><StadiumID>40</StadiumID><Name>Twickenham Stadium</Name><City>London</City><State i:nil="true"/><Country>UK</Country><Capacity>82000</Capacity><PlayingSurface>Grass</PlayingSurface><GeoLat>51.455936</GeoLat><GeoLong>-0.341516</GeoLong><Type>Outdoor</Type></Stadium><Stadium><StadiumID>41</StadiumID><Name>Estadio Azteca</Name><City>Mexico City</City><State i:nil="true"/><Country>MEX</Country><Capacity>87000</Capacity><PlayingSurface>Grass</PlayingSurface><GeoLat>19.302861</GeoLat><GeoLong>-99.150528</GeoLong><Type>Outdoor</Type></Stadium><Stadium><StadiumID>42</StadiumID><Name>U.S. Bank Stadium</Name><City>Minneapolis</City><State>MN</State><Country>USA</Country><Capacity>66655</Capacity><PlayingSurface>Artificial</PlayingSurface><GeoLat>44.974288</GeoLat><GeoLong>-93.329728</GeoLong><Type>Dome</Type></Stadium><Stadium><StadiumID>43</StadiumID><Name>StubHub Center</Name><City>Carson</City><State>CA</State><Country>USA</Country><Capacity>27000</Capacity><PlayingSurface>Grass</PlayingSurface><GeoLat>33.858663</GeoLat><GeoLong>-118.256666</GeoLong><Type>Outdoor</Type></Stadium><Stadium><StadiumID>45</StadiumID><Name>Mercedes-Benz Stadium</Name><City>Atlanta</City><State>GA</State><Country>USA</Country><Capacity>71000</Capacity><PlayingSurface>Artificial</PlayingSurface><GeoLat>33.755000</GeoLat><GeoLong>-84.401000</GeoLong><Type>RetractableDome</Type></Stadium><Stadium><StadiumID>46</StadiumID><Name>Tom Benson Hall of Fame Stadium</Name><City>Canton</City><State>OH</State><Country>USA</Country><Capacity i:nil="true"/><PlayingSurface i:nil="true"/><GeoLat>40.819880</GeoLat><GeoLong>-81.398010</GeoLong><Type i:nil="true"/></Stadium><Stadium><StadiumID>47</StadiumID><Name>Tottenham Stadium</Name><City>London</City><State i:nil="true"/><Country>UK</Country><Capacity>62062</Capacity><PlayingSurface i:nil="true"/><GeoLat>51.604444</GeoLat><GeoLong>-0.066389</GeoLong><Type>Outdoor</Type></Stadium><Stadium><StadiumID>48</StadiumID><Name>Aloha Stadium</Name><City>Honolulu</City><State>HI</State><Country>USA</Country><Capacity>50000</Capacity><PlayingSurface>Artificial</PlayingSurface><GeoLat>21.372647</GeoLat><GeoLong>-157.929821</GeoLong><Type>Outdoor</Type></Stadium><Stadium><StadiumID>50</StadiumID><Name>Investors Group Field</Name><City>Winnipeg</City><State i:nil="true"/><Country>CA</Country><Capacity>33134</Capacity><PlayingSurface>Artificial</PlayingSurface><GeoLat>49.807778</GeoLat><GeoLong>-97.143056</GeoLong><Type>Outdoor</Type></Stadium></ArrayOfStadium>